station_id,avg_net_flow,cluster,lat,lng,station_name,seasonal_status,municipality,total_docks
3,-0.17391304347826086,2,42.3401151224924,-71.1006188392639,Colleges of the Fenway - Fenway at Avenue Louis Pasteur,Year Round,Boston,15
4,0.45652173913043476,2,42.345392,-71.069616,Tremont St at E Berkeley St,Year Round,Boston,19
5,1.315217391304348,2,42.341814,-71.090179,Northeastern University - North Parking Lot,Winter Storage,Boston,15
6,-0.44565217391304346,2,42.3612572164654,-71.0652874410152,Cambridge St at Joy St,Year Round,Boston,15
7,1.423913043478261,2,42.3533905070523,-71.0445713996887,Fan Pier,Year Round,Boston,15
8,0.25,2,42.353334,-71.137313,Union Square - Brighton Ave at Cambridge St,Year Round,Boston,19
9,1.0978260869565217,2,42.3516920188597,-71.1190348863602,Commonwealth Ave at Agganis Way,Year Round,Boston,15
10,0.2717391304347826,2,42.350406,-71.108279,B.U. Central - 725 Comm. Ave.,Year Round,Boston,11
11,27.72826086956522,1,42.338629,-71.10649999999998,Longwood Ave at Binney St,Year Round,Boston,15
12,1.8478260869565217,2,42.33624444796881,-71.0879856348038,Ruggles T Stop - Columbus Ave at Melnea Cass Blvd,Year Round,Boston,26
13,2.0869565217391304,2,42.336399153725,-71.073067113939,Boston Medical Center - E Concord St at Harrison Ave,Winter Storage,Boston,19
14,2.7282608695652173,2,42.3374174845973,-71.1028611660004,HMS/HSPH - Avenue Louis Pasteur at Longwood Ave,Year Round,Boston,25
15,2.5543478260869565,2,42.3615457081725,-71.1377620697022,Brighton Mills - 370 Western Ave,Year Round,Boston,15
16,0.8695652173913043,2,42.3480741231744,-71.0765701532364,Back Bay T Stop - Dartmouth St at Stuart St,Year Round,Boston,19
17,-0.11956521739130435,2,42.3642634406385,-71.1182756971175,Soldiers Field Park - 111 Western Ave,Year Round,Boston,15
19,0.2717391304347826,2,42.347241,-71.105301,Park Dr at Buswell St,Year Round,Boston,15
20,3.6630434782608696,2,42.3599117611012,-71.0514298081398,Aquarium T Stop - 200 Atlantic Ave,Year Round,Boston,23
21,0.21739130434782608,2,42.3465200399841,-71.0806577654512,Prudential Center - 101 Huntington Ave,Year Round,Boston,18
22,0.5869565217391305,2,42.352175,-71.055547,South Station - 700 Atlantic Ave,Year Round,Boston,47
23,-1.3478260869565217,2,42.35892,-71.057629,Boston City Hall - 28 State St,Year Round,Boston,25
24,1.7282608695652173,2,42.3514819346086,-71.0443608462811,Seaport Square - Seaport Blvd at Northern Ave,Year Round,Boston,23
25,0.391304347826087,2,42.341332,-71.076847,South End Library - Tremont St at W Newton St,Year Round,Boston,15
26,1.5217391304347827,2,42.34157471873749,-71.0689043998718,Washington St at Waltham St,Year Round,Boston,15
27,-0.16304347826086957,2,42.331184,-71.095171,Roxbury Crossing T Stop - Columbus Ave at Tremont St,Year Round,Boston,23
29,0.532608695652174,2,42.3637127600358,-71.1245977878571,Innovation Lab - 125 Western Ave at Batten Way,Year Round,Boston,19
30,-0.7282608695652174,2,42.3346289305598,-71.1040791776759,Brigham Circle - Francis St at Huntington Ave,Year Round,Boston,15
31,-0.5652173913043478,2,42.3488102618827,-71.041677440553,Seaport Hotel - Congress St at Seaport Ln,Year Round,Boston,19
32,0.5760869565217391,2,42.3436905571975,-71.1023528688111,Landmark Center - Brookline Ave at Park Dr,Year Round,Boston,15
33,-0.8043478260869565,2,42.348706,-71.097009,Kenmore Square,Year Round,Boston,27
35,1.7065217391304348,2,42.3553350194126,-71.0582291708306,Arch St at Franklin St,Winter Storage,Boston,31
36,-1.7391304347826086,2,42.3499282823006,-71.0773920686643,Copley Square - Dartmouth St at Boylston St,Year Round,Boston,33
37,0.44565217391304346,2,42.3573292186771,-71.1467353999615,New Balance - 20 Guest St,Year Round,Boston,15
39,3.6739130434782608,2,42.338514601785995,-71.0740408301354,Washington St at Rutland St,Year Round,Boston,27
40,0.6739130434782609,2,42.363871,-71.050877,Lewis Wharf at Atlantic Ave,Year Round,Boston,19
41,0.717391304347826,2,42.352261,-71.123831,Packard's Corner - Commonwealth Ave at Brighton Ave,Year Round,Boston,27
42,9.83695652173913,2,42.3520096074312,-71.0706029489211,Boylston St at Arlington St,Year Round,Boston,31
43,0.8695652173913043,2,42.357143,-71.050699,Rowes Wharf at Atlantic Ave,Year Round,Boston,15
44,-4.163043478260869,0,42.3604177463717,-71.0575224354398,Congress St at Boston City Hall,Year Round,Boston,23
46,-0.22826086956521738,2,42.3436658245146,-71.0858237743378,Christian Science Plaza - Massachusetts Ave at Westland Ave,Year Round,Boston,19
47,2.6630434782608696,2,42.362811,-71.056067,Cross St at Hanover St,Year Round,Boston,19
48,0.20652173913043478,2,42.3558543552201,-71.0545974599881,Post Office Square,Winter Storage,Boston,19
49,0.34782608695652173,2,42.351146,-71.066289,Stuart St at Charles St,Year Round,Boston,18
50,0.945054945054945,2,42.3511419825475,-71.0732924938202,Boylston St at Berkeley St,Year Round,Boston,15
51,0.7608695652173914,2,42.3350989929096,-71.0790377855301,Washington St at Lenox St,Year Round,Boston,15
52,-0.5978260869565217,2,42.348717,-71.085954,Newbury St at Hereford St,Winter Storage,Boston,23
53,5.25,2,42.3508268066909,-71.0898108780384,Beacon St at Massachusetts Ave,Winter Storage,Boston,19
54,-0.7717391304347826,2,42.354979,-71.063348,Tremont St at West St,Year Round,Boston,15
55,1.3695652173913044,2,42.3474062052521,-71.0867841495565,Boylston St at Massachusetts Ave,Year Round,Boston,15
56,2.1630434782608696,2,42.3298429935181,-71.0838657245949,Dudley Square - Bolling Building,Year Round,Boston,18
57,-0.043478260869565216,2,42.340814,-71.0816197,Massachusetts Ave at Columbus Ave,Year Round,Boston,14
58,0.010869565217391304,2,42.3555362848971,-71.0728687047958,Mugar Way at Beacon St,Year Round,Boston,19
59,1.2717391304347827,2,42.351356,-71.059367,Chinatown Gate Plaza,Year Round,Boston,19
60,1.815217391304348,2,42.36079296858269,-71.0711896233715,Charles Circle - Charles St at Cambridge St,Year Round,Boston,19
61,2.109375,2,42.349081551681,-71.0819238424301,Boylston St at Fairfield St,Year Round,Boston,19
63,-0.31521739130434784,2,42.3440405100164,-71.0573762655258,Dorchester Ave at Gillette Park,Year Round,Boston,15
64,3.2282608695652173,2,42.3510044959467,-71.049300134182,Congress St at Sleeper St,Winter Storage,Boston,19
65,-2.9782608695652173,0,42.3477634541475,-71.0453599691391,Boston Convention and Exhibition Center - Summer St at West Side Dr,Year Round,Boston,23
66,-0.1956521739130435,2,42.349224693383,-71.1327530257859,Commonwealth Ave at Griggs St,Year Round,Boston,15
67,-2.9347826086956523,0,42.3581,-71.093198,MIT at Mass Ave / Amherst St,Year Round,Cambridge,27
68,-0.4888888888888889,2,42.36507,-71.1031,Central Square at Mass Ave / Essex St,Year Round,Cambridge,19
69,0.34782608695652173,2,42.341598,-71.123338,Coolidge Corner - Beacon St at Centre St,Year Round,Brookline,19
70,5.173913043478261,2,42.3722168027866,-71.121880710125,Harvard Kennedy School at Bennett St / Eliot St,Year Round,Cambridge,23
71,0.5760869565217391,2,42.3836389482227,-71.1085367202759,Conway Park - Somerville Avenue,Year Round,Somerville,23
72,0.8913043478260869,2,42.3622417865092,-71.0831107199192,One Broadway / Kendall Sq at Main St / 3rd St,Year Round,Cambridge,23
73,3.9347826086956523,2,42.3733287988741,-71.1209860108011,Harvard Square at Brattle St / Eliot St,Year Round,Cambridge,15
74,1.4130434782608696,2,42.373268,-71.118579,Harvard Square at Mass Ave/ Dunster,Year Round,Cambridge,19
75,1.7934782608695652,2,42.3634646930435,-71.1005732417107,Lafayette Square at Mass Ave / Main St / Columbia St,Year Round,Cambridge,15
76,-0.8260869565217391,2,42.366426,-71.105495,Central Sq Post Office / Cambridge City Hall at Mass Ave / Pleasant St,Year Round,Cambridge,17
77,-8.978260869565217,0,42.386844,-71.09812,Somerville City Hall,Year Round,Somerville,19
78,3.130434782608696,2,42.3796478996753,-71.0954047567248,Union Square - Somerville,Year Round,Somerville,19
79,1.4130434782608696,2,42.3787535121259,-71.1070722341538,Beacon St at Washington / Kirkland,Year Round,Somerville,19
80,-4.108695652173913,0,42.3621312344991,-71.0911560058594,MIT Stata Center at Vassar St / Main St,Year Round,Cambridge,35
81,0.9456521739130435,2,42.352409,-71.062679,Chinatown T Stop,Year Round,Boston,19
82,-3.130434782608696,0,42.3382668005804,-71.1389468202833,Beacon St at Tappan St,Year Round,Brookline,15
84,4.6521739130434785,2,42.3670740714909,-71.0767927765846,CambridgeSide Galleria - CambridgeSide PL at Land Blvd,Year Round,Cambridge,15
85,0.8804347826086957,2,42.378338,-71.048927,Spaulding Rehabilitation Hospital - Charlestown Navy Yard,Year Round,Boston,19
86,0.6630434782608695,2,42.3327439230489,-71.1162668094949,Brookline Village - Station Street at MBTA,Year Round,Brookline,19
87,-0.5434782608695652,2,42.366621,-71.114214,Harvard University Housing - 115 Putnam Ave at Peabody Terrace,Year Round,Cambridge,15
89,0.7065217391304348,2,42.379011,-71.119945,Harvard Law School at Mass Ave / Jarvis St,Year Round,Cambridge,19
91,-1.8369565217391304,0,42.366277,-71.09169,One Kendall Square at Hampshire St / Portland St,Year Round,Cambridge,19
92,-0.5714285714285714,2,42.3121891847561,-71.0364858620324,University of Massachusetts Boston - Campus Center,Year Round,Boston,19
93,2.2282608695652173,2,42.3203397351572,-71.0511803627014,JFK/UMass T Stop,Year Round,Boston,31
94,0.9891304347826086,2,42.375603,-71.064608,Main St at Austin St,Year Round,Boston,11
95,-0.6195652173913043,2,42.372969,-71.094445,Cambridge St - at Columbia St / Webster Ave,Year Round,Cambridge,15
96,1.0869565217391304,2,42.373379,-71.111075,Cambridge Main Library at Broadway / Trowbridge St,Year Round,Cambridge,19
97,-1.2282608695652173,2,42.369218921417136,-71.11701491347331,Harvard University River Houses at DeWolfe St / Cowperthwaite St,Year Round,Cambridge,21
98,-1.5326086956521738,2,42.371848,-71.060292,Warren St at Chelsea St,Year Round,Boston,23
99,0.06521739130434782,2,42.3856757875291,-71.114121362989,Wilson Square,Year Round,Somerville,15
100,6.554347826086956,2,42.396969,-71.123024,Davis Square,Year Round,Somerville,25
101,-0.22826086956521738,2,42.3992033572087,-71.1110223551623,Ball Sq,Year Round,Somerville,19
102,-0.06521739130434782,2,42.400877,-71.116772,Powder House Circle - Nathan Tufts Park,Year Round,Somerville,15
103,-0.9891304347826086,2,42.3465512417536,-71.1283321143128,JFK Crossing at Harvard St. / Thorndike St.,Year Round,Brookline,15
104,-0.2717391304347826,2,42.380287,-71.125107,Harvard University Radcliffe Quadrangle at Shepard St / Garden St,Year Round,Cambridge,19
105,0.5434782608695652,2,42.3572185031765,-71.1138716340065,Lower Cambridgeport at Magazine St / Riverside Rd,Year Round,Cambridge,19
106,0.7717391304347826,2,42.325333,-71.075354,Dudley Town Common - Mt Pleasant Ave at Blue Hill Ave,Year Round,Boston,15
107,37.58695652173913,1,42.3625,-71.08822,Ames St at Main St,Year Round,Cambridge,19
108,0.8586956521739131,2,42.377945,-71.116865,Harvard University / SEAS Cruft-Pierce Halls at 29 Oxford St,Year Round,Cambridge,17
109,-8.815217391304348,0,42.3659078844508,-71.0644666850567,West End Park,Year Round,Boston,35
110,1.5434782608695652,2,42.376369,-71.114025,Harvard University Gund Hall at Quincy St / Kirkland St,Year Round,Cambridge,15
111,-0.34782608695652173,2,42.40449,-71.123413,Packard Ave at Powderhouse Blvd,Year Round,Somerville,15
112,0.21739130434782608,2,42.406302,-71.132446,Clarendon Hill at Broadway,Year Round,Somerville,15
113,3.4239130434782608,2,42.33067077510403,-71.05700292639855,Andrew T Stop - Dorchester Ave at Dexter St,Winter Storage,Boston,15
114,-0.9891304347826086,2,42.40231703379009,-71.1267112942369,Teele Square,Year Round,Somerville,15
115,3.391304347826087,2,42.387995,-71.119084,Porter Square Station,Year Round,Cambridge,19
116,-8.282608695652174,0,42.370803,-71.104412,359 Broadway - Broadway at Fayette Street,Year Round,Cambridge,23
117,-0.06521739130434782,2,42.3660879738868,-71.0863360390977,Binney St / Sixth St,Year Round,Cambridge,19
119,1.4673913043478262,2,42.335741,-71.03877,South Boston Library - 646 E Broadway,Year Round,Boston,15
120,2.3043478260869565,2,42.356052,-71.069849,Beacon St at Charles St,Year Round,Boston,19
121,0.42391304347826086,2,42.3359589794331,-71.0462289956104,W Broadway at Dorchester St,Year Round,Boston,17
122,1.5434782608695652,2,42.345733,-71.100694,Burlington Ave at Brookline Ave,Year Round,Boston,15
124,0.42391304347826086,2,42.309054,-71.11543,Curtis Hall - South St at Centre St,Year Round,Boston,15
125,-2.010869565217391,0,42.3217652572395,-71.1098416056711,Hyde Square - Barbara St at Centre St,Year Round,Boston,15
126,-0.1956521739130435,2,42.315692,-71.098634,Egleston Square - Atherton St at Washington St,Year Round,Boston,15
128,1.0869565217391304,2,42.320561,-71.06198,E Cottage St at Columbia Rd,Winter Storage,Boston,19
129,-0.29347826086956524,2,42.377022,-71.056605,Hayes Square - Vine St at Moulton St,Winter Storage,Boston,19
130,0.33695652173913043,2,42.3172747432745,-71.0653700396779,Uphams Corner,Winter Storage,Boston,15
131,1.1956521739130435,2,42.3229311719595,-71.1001414060593,Jackson Square T Stop,Year Round,Boston,18
133,0.3804347826086957,2,42.310579,-71.107341,Green Street T Stop - Green St at Amory St,Year Round,Boston,23
135,0.01098901098901099,2,42.344827,-71.028664,ID Building East,Year Round,Boston,17
136,1.0108695652173914,2,42.344796,-71.031614,ID Building West,Year Round,Boston,19
137,-0.532608695652174,2,42.3977833996125,-71.1059400446538,Magoun Square at Trum Field,Year Round,Somerville,19
138,3.3043478260869565,2,42.326599,-71.066498,Newmarket Square T Stop - Massachusetts Ave at Newmarket Square,Year Round,Boston,15
139,-0.07608695652173914,2,42.3617804396061,-71.1080995202065,Dana Park,Year Round,Cambridge,19
140,0.717391304347826,2,42.388966,-71.132788,Danehy Park,Year Round,Cambridge,17
141,-0.30434782608695654,2,42.3635601584299,-71.0821679234505,Kendall Street,Year Round,Cambridge,17
142,0.05434782608695652,2,42.396105,-71.139459,Alewife Station at Russell Field,Year Round,Cambridge,23
143,1.391304347826087,2,42.369885,-71.069957,EF - North Point Park,Year Round,Cambridge,23
144,-0.7391304347826086,2,42.3664467385295,-71.0765460133553,Rogers St & Land Blvd,Year Round,Cambridge,19
145,0.5760869565217391,2,42.392766,-71.129042,Rindge Avenue - O'Neill Library,Year Round,Cambridge,19
146,1.826086956521739,2,42.336448,-71.023739,Murphy Skating Rink - 1880 Day Blvd,Year Round,Boston,19
149,1.5543478260869565,2,42.363796,-71.129164,175 N Harvard St,Year Round,Boston,18
150,0.22826086956521738,2,42.344137,-71.052608,State Street at Channel Center,Year Round,Boston,19
151,-2.7717391304347827,0,42.358155,-71.052163,Surface Rd at India St,Year Round,Boston,19
152,0.21739130434782608,2,42.345901,-71.063187,Ink Block - Harrison Ave at Herald St,Year Round,Boston,27
156,-2.652173913043478,0,42.3904462160413,-71.108566224575,Somerville Hospital,Year Round,Somerville,15
157,1.184782608695652,2,42.3531780918625,-71.0481735692338,Seaport Blvd at Sleeper St,Year Round,Boston,15
159,-2.1630434782608696,0,42.3276038704057,-71.110891699791,S Huntington Ave at Heath St,Year Round,Boston,15
160,1.25,2,42.3375860109724,-71.0962709784508,Wentworth Institute of Technology - Huntington Ave at Vancouver St,Year Round,Boston,14
161,1.6956521739130435,2,42.3391085,-71.0514432,W Broadway at D St,Year Round,Boston,23
162,-1.2307692307692308,2,42.309796,-71.092225,Franklin Park - Seaver St at Humboldt Ave,Year Round,Boston,15
163,-3.10989010989011,0,42.344792,-71.044024,The Lawn on D,Year Round,Boston,19
167,0.8695652173913043,2,42.317642,-71.05666400000001,Ryan Playground - Dorchester Ave at Harbor View St,Winter Storage,Boston,15
169,0.3695652173913043,2,42.378965,-71.068607,Edwards Playground - Main St at Eden St,Year Round,Boston,19
170,-1.6741573033707866,2,42.303469,-71.085347,Franklin Park Zoo - Franklin Park Rd at Blue Hill Ave,Year Round,Boston,14
171,-4.521739130434782,0,42.3740899142652,-71.0690599679947,Bunker Hill Community College,Year Round,Boston,23
173,1.641304347826087,2,42.3106,-71.0539,Savin Hill T Stop - S Sydney St at Bay St,Year Round,Boston,14
174,0.043478260869565216,2,42.3489528466951,-71.1603167653084,Washington St at Brock St,Year Round,Boston,15
175,-1.4565217391304348,2,42.3489485723559,-71.1502718925476,Brighton Center - Washington St at Cambridge St,Year Round,Boston,17
176,1.5543478260869565,2,42.3867480204506,-71.1190187931061,Lesley University,Year Round,Cambridge,15
177,-12.358695652173912,0,42.362647791186,-71.1000609397888,University Park,Year Round,Cambridge,19
178,-6.293478260869565,0,42.359573201090406,-71.1012947559357,MIT Pacific St at Purrington St,Year Round,Cambridge,19
179,-5.673913043478261,0,42.3556012132793,-71.1039447784424,MIT Vassar St,Year Round,Cambridge,53
180,-0.2391304347826087,2,42.3747862870638,-71.1332023143768,Mt Auburn,Year Round,Cambridge,19
181,-0.07608695652173914,2,42.3816506129012,-71.1342698149838,Huron Ave At Vassal Lane,Year Round,Cambridge,19
182,-3.032608695652174,0,42.3676901802449,-71.0711628198624,Museum of Science,Year Round,Cambridge,19
183,-0.9456521739130435,2,42.3955884571671,-71.142606139183,Alewife MBTA at Steel Place,Year Round,Cambridge,19
184,-1.673913043478261,2,42.357753094652,-71.1039340496063,Sidney Research Campus/Erie Street at Waverly,Year Round,Cambridge,19
185,-1.4456521739130435,2,42.365444861374,-71.0827714204788,Third at Binney,Year Round,Cambridge,15
186,0.22826086956521738,2,42.3481,-71.03764,Congress St at Northern Ave,Year Round,Boston,15
187,-0.9565217391304348,2,42.3278431747869,-71.1253622174263,Cypress St at Clark Playground,Year Round,Brookline,15
188,3.25,2,42.3910843814673,-71.0903942584992,Foss Park,Year Round,Somerville,15
189,-1.2857142857142858,2,42.3624278429124,-71.0849547386169,Kendall T,Year Round,Cambridge,23
190,1.5108695652173914,2,42.365673,-71.064263,Nashua Street at Red Auerbach Way,Year Round,Boston,37
191,-0.13043478260869565,2,42.3329528969848,-71.1282475630924,Tappan St at Brookline Hills MBTA,Year Round,Brookline,15
192,-1.565217391304348,2,42.35465899999999,-71.053181,Purchase St at Pearl St,Year Round,Boston,19
193,0.5652173913043478,2,42.3337647262349,-71.1204644666032,Brookline Town Hall,Year Round,Brookline,15
194,-1.9891304347826086,0,42.3861414116396,-71.0782814025879,Broadway St at Mt Pleasant St,Year Round,Somerville,19
195,-3.152173913043478,0,42.3719767846797,-71.0720049597217,Child Street at Brian P. Murphy Staircase,Year Round,Cambridge,23
196,-0.05434782608695652,2,42.317873293456,-71.0824307799339,Roxbury YMCA - Warren St at MLK Blvd,Year Round,Boston,10
197,-0.34782608695652173,2,42.321438141832,-71.091260612011,MLK Blvd at Washington St,Year Round,Boston,15
199,-0.06521739130434782,2,42.3186973417224,-71.0697814822197,Uphams Corner T Stop - Magnolia St at Dudley St,Winter Storage,Boston,15
200,0.5869565217391305,2,42.332817,-71.081198,Washington St at Melnea Cass Blvd,Year Round,Boston,19
201,-0.5384615384615384,2,42.316902,-71.091946,NCAAA - Walnut Ave at Crawford St,Year Round,Boston,15
202,-0.3977272727272727,2,42.30791,-71.080952,Grove Hall Library - 41 Geneva Ave,Year Round,Boston,15
203,-0.15853658536585366,2,42.30957200000001,-71.0729,Columbia Rd at Ceylon St,Year Round,Boston,15
204,-0.967391304347826,2,42.32408099999999,-71.083235,Walnut Ave at Warren St,Winter Storage,Boston,15
205,-0.17391304347826086,2,42.307852242385,-71.0651224851608,Bowdoin St at Quincy St,Year Round,Boston,15
206,-5.8478260869565215,0,42.3598253979878,-71.0597957624486,Government Center - Cambridge St at Court St,Year Round,Boston,35
208,1.4673913043478262,2,42.35057,-71.166491,Oak Square - 615 Washington St,Year Round,Boston,15
210,-0.45454545454545453,2,42.3835325201179,-71.0161909461021,Bennington St at Byron St,Year Round,Boston,15
211,0.11956521739130435,2,42.365011198223,-71.0352855920792,Piers Park,Winter Storage,Boston,15
212,-0.13043478260869565,2,42.3688440828983,-71.0397782921791,Maverick Square - Lewis Mall,Year Round,Boston,33
213,-0.7282608695652174,2,42.369536,-71.039431,East Boston Neighborhood Health Center - 20 Maverick Square,Year Round,Boston,16
214,0.34782608695652173,2,42.375341926705694,-71.031289100647,Airport T Stop - Bremen St at Brooks St,Year Round,Boston,11
214,0.34782608695652173,2,42.375341926705694,-71.031289100647,Airport T Stop - Bremen St at Brooks St,Year Round,Boston,15
215,-0.30434782608695654,2,42.370744,-71.044201,The Eddy - New St at Sumner St,Year Round,Boston,15
216,0.03333333333333333,2,42.3824037767414,-71.0302430391312,Glendon St at Condor St,Winter Storage,Boston,19
217,0.8695652173913043,2,42.386781000000006,-71.006098,Orient Heights T Stop - Bennington St at Saratoga St,Year Round,Boston,19
218,3.641304347826087,2,42.3515860011985,-71.0456925630569,Watermark Seaport - Boston Wharf Rd at Seaport Blvd,Year Round,Boston,15
219,-0.21739130434782608,2,42.3733121258247,-71.0410200806291,Boston East - 126 Border St,Year Round,Boston,15
221,-2.880434782608696,0,42.3725086499726,-71.113053560257,Verizon Innovation Hub 10 Ware Street,Year Round,Cambridge,19
222,0.14130434782608695,2,42.343749,-71.062256,Troy Boston,Year Round,Boston,14
224,0.13043478260869565,2,42.3826782752186,-71.143478951426,Fresh Pond Reservation,Year Round,Cambridge,17
225,-2.1630434782608696,0,42.3711972775941,-71.0975986719132,Cambridge Dept. of Public Works -147 Hampshire St.,Year Round,Cambridge,19
226,-2.25,0,42.3515473479138,-71.121262460947,Commonwealth Ave At Babcock St,Year Round,Brookline,15
227,2.489130434782609,2,42.34949599514,-71.1005759239197,Silber Way,Year Round,Boston,19
228,-3.141304347826087,0,42.3616193207669,-71.0804355052096,One Memorial Drive,Year Round,Cambridge,19
232,-0.13414634146341464,2,42.3041279273902,-71.0792952775955,Four Corners - 157 Washington St,Year Round,Boston,11
233,-1.7608695652173914,2,42.3461970765555,-71.1072868108749,St Mary's,Year Round,Brookline,15
234,-6.25,0,42.3951715012158,-71.098505919822,Broadway at Central St,Year Round,Somerville,19
235,-0.7934782608695652,2,42.3876281075134,-71.0831871628761,East Somerville Library (Broadway and Illinois),Year Round,Somerville,15
236,5.021739130434782,2,42.3922328400463,-71.0774660110474,Assembly Square T,Year Round,Somerville,15
239,-0.5543478260869565,2,42.3940722366589,-71.1113369464874,Community Path at Cedar Street,Year Round,Somerville,15
255,0.3780487804878049,2,42.2944257867066,-71.078217607137,Park St at Norwell St,Year Round,Boston,15
258,1.3666666666666667,2,42.2829756784031,-71.0546669829637,Gallivan Blvd at Adams St,Year Round,Boston,15
259,-0.9036144578313253,2,42.2991649793659,-71.0734587164552,Washington St at Bowdoin St,Winter Storage,Boston,15
260,1.5434782608695652,2,42.2996334884206,-71.0606897582329,Fields Corner T Stop,Year Round,Boston,15
271,-0.9456521739130435,2,42.2856944,-71.0641389,Ashmont T Stop,Year Round,Boston,15
272,0.24175824175824176,2,42.292917,-71.06575,Shawmut T Stop,Year Round,Boston,19
273,-0.6521739130434783,2,42.300923,-71.114249,Forest Hills,Year Round,Boston,40
279,1.3333333333333333,2,42.306539,-71.107669,Williams St at Washington St,Year Round,Boston,23
280,-1.9565217391304348,0,42.380857,-71.070629,Main St at Baldwin St,Year Round,Boston,19
282,0.5543478260869565,2,42.316966,-71.104374,Stony Brook T Stop,Year Round,Boston,19
296,3.7282608695652173,2,42.3334,-71.02495,Farragut Rd at E. 6th St,Year Round,Boston,23
318,-1.173913043478261,2,42.3636929,-71.0875672,Ames St at Broadway,Year Round,Cambridge,19
319,-0.021739130434782608,2,42.3936,-71.143941,84 Cambridgepark Dr,Year Round,Cambridge,27
327,-2.3152173913043477,0,42.374878467441,-71.0638349876717,Main St at Thompson Sq,Year Round,Boston,15
328,1.673913043478261,2,42.396386809455,-71.1201130600603,Grove St at Community Path,Year Round,Somerville,15
329,-0.44565217391304346,2,42.3817508,-71.0839523,Washington St at Myrtle St,Year Round,Somerville,15
330,1.0108695652173914,2,42.3810014303805,-71.1040252261319,30 Dane St,Year Round,Somerville,15
331,-2.239130434782609,0,42.3365855545612,-71.0988699646623,Huntington Ave at Mass Art,Year Round,Boston,15
332,-1.1304347826086956,2,42.3495301689038,-71.1302277074174,Harvard Ave at Brainerd Rd,Year Round,Boston,15
333,-0.8695652173913043,2,42.3750023513783,-71.1487161369951,699 Mt Auburn St,Year Round,Cambridge,25
334,0.5217391304347826,2,42.3912097191586,-71.1226075516061,Mass Ave at Hadley/Walden,Year Round,Cambridge,19
335,-6.108695652173913,0,42.3659943286744,-71.095222216145,Harvard St at Greene-Rose Heritage Park,Year Round,Cambridge,19
336,0.6190476190476191,2,42.267902,-71.093641,Mattapan T Stop,Year Round,Boston,15
337,2.7934782608695654,2,42.287072,-71.127754,Roslindale Village - South St,Year Round,Boston,15
338,-1.7173913043478262,2,42.3483586281705,-71.1399721727685,Commonwealth Ave at Kelton St,Year Round,Boston,15
339,0.8426966292134831,2,42.2926659287273,-71.1211953871407,Archdale Rd at Washington St,Year Round,Boston,15
340,0.09433962264150944,2,42.2746206718122,-71.0937255249337,Blue Hill Ave at Almont St,Year Round,Boston,19
341,0.32967032967032966,2,42.2863071601081,-71.1282053218201,Roslindale Village - Washington St,Year Round,Boston,15
342,1.5,2,42.3446506288783,-71.0973250122697,Boylston St at Jersey St,Year Round,Boston,15
343,0.0,2,42.2807251429203,-71.0861724243478,Morton St T,Winter Storage,Boston,15
344,-1.6195652173913044,2,42.3402464476889,-71.1516880617455,Commonwealth Ave at Chiswick Rd,Year Round,Boston,19
345,-4.543478260869565,0,42.3518280689207,-71.0678113811173,Park Plaza at Charles St S.,Year Round,Boston,19
346,-1.141304347826087,2,42.3355430835708,-71.1506151967205,Cleveland Circle,Year Round,Boston,15
347,0.07692307692307693,2,42.2862129482461,-71.0794293137224,Thetford Ave at Norfolk St,Winter Storage,Boston,15
348,0.3950617283950617,2,42.2945833,-71.087111,Talbot Ave At Blue Hill Ave,Year Round,Boston,15
349,-0.1125,2,42.290333,-71.071806,Washington St at Talbot Ave,Year Round,Boston,17
350,-0.0945945945945946,2,42.2873611,-71.071111,Codman Square Library,Year Round,Boston,17
352,-1.9130434782608696,0,42.3482783854263,-71.080448553148,Ring Rd,Year Round - Currently Stored,Boston,15
353,-0.18181818181818182,2,42.2773889,-71.09325,Mattapan Library,Year Round,Boston,15
354,-3.217391304347826,0,42.3428683507196,-71.1412784085587,Washington St at Egremont Rd,Winter Storage,Boston,15
355,0.16304347826086957,2,42.3852239358705,-71.0106306896523,Bennington St at Constitution Beach,Year Round,Boston,17
356,1.2173913043478262,2,42.3741245494265,-71.0548119993837,Charlestown Navy Yard,Year Round,Boston,23
357,1.1956521739130435,2,42.312120300000004,-71.1142981,Centre St at Seaverns Ave,Winter Storage,Boston,15
358,0.03260869565217391,2,42.3804294744949,-71.0605572167697,Medford St at Charlestown BCYF,Year Round,Boston,19
359,-6.391304347826087,0,42.33392270137,-71.1044650898293,One Brigham Circle,Year Round,Boston,15
360,-2.510869565217391,0,42.3294633,-71.0901582,Bartlett St at John Elliot Sq,Year Round,Boston,15
361,-2.347826086956522,0,42.349243769553,-71.0972820969255,Deerfield St at Commonwealth Ave,Year Round,Boston,19
362,6.510869565217392,2,42.3302307052873,-71.0506009312303,Columbia Rd at Tierney Community Center,Year Round,Boston,19
363,-3.477777777777778,0,42.3452156211502,-71.0638403149278,Harrison Ave at Mullins Way,Year Round,Boston,19
364,0.11956521739130435,2,42.338431795291,-71.0816904992498,Tremont St at Northampton St,Year Round,Boston,19
365,0.06521739130434782,2,42.3494260989252,-71.0620995984391,Harrison Ave at Bennet St,Year Round,Boston,19
367,0.14285714285714285,2,42.3853676521843,-71.1377567052841,Vassal Lane at Tobin/VLUS,Year Round,Cambridge,19
368,-0.2808988764044944,2,42.3178602058999,-71.0779862852724,Blue Hill Ave at Southwood St,Winter Storage,Boston,15
370,2.532608695652174,2,42.3509614442122,-71.0778281092644,Dartmouth St at Newbury St,Year Round,Boston,19
371,-0.3804347826086957,2,42.3807881729143,-71.154128909111,700 Huron Ave,Year Round,Cambridge,19
372,-1.4130434782608696,2,42.3495894236824,-71.0794677917329,Boylston St at Exeter St,Year Round,Boston,19
373,-0.47058823529411764,2,42.2863458948631,-71.1367212982805,Belgrade Ave at Walworth St,Year Round,Boston,15
374,-2.3043478260869565,0,42.356683349699296,-71.0616664588451,Tremont St at Hamilton Pl,Year Round,Boston,19
376,0.6195652173913043,2,42.3602737045493,-71.1285245232739,Honan Library,Year Round,Boston,15
377,1.5108695652173914,2,42.3792732460084,-71.1034190283135,Perry Park,Year Round,Somerville,19
378,-2.630434782608696,0,42.3803233504542,-71.1087861285523,191 Beacon St,Year Round,Somerville,19
379,-1.826086956521739,0,42.34254913737949,-71.0742144938786,Tremont St at W. Dedham St,Year Round,Boston,15
380,0.20652173913043478,2,42.3613583766225,-71.0967027397783,Mass Ave at Albany St,Year Round,Cambridge,18
381,-3.8043478260869565,0,42.3742671352493,-71.100264787674,Inman Square at Springfield St.,Year Round,Cambridge,25
384,2.608695652173913,2,42.3515966246532,-71.0756166279316,Clarendon St at Newbury St,Winter Storage,Boston,19
385,1.2282608695652173,2,42.3366479542707,-71.0689445958451,Albany St at E. Brookline St,Year Round,Boston,15
386,-4.358695652173913,0,42.368605242482,-71.0993018560566,Sennott Park Broadway at Norfolk Street,Year Round,Cambridge,19
387,1.5824175824175823,2,42.4114322297341,-71.068232650905,7 Acre Park,Year Round,Everett,15
389,0.12087912087912088,2,42.4069567891024,-71.0565028960582,Everett Square (Broadway at Chelsea St),Year Round,Everett,16
390,0.2608695652173913,2,42.3964835824769,-71.0654675990554,Broadway at Lynde St,Year Round,Everett,15
391,0.40217391304347827,2,42.3932926322516,-71.0724475979805,Encore,Year Round,Everett,15
392,0.6373626373626373,2,42.4142729429399,-71.0447965565982,Glendale Square (Ferry St at Broadway),Year Round,Everett,15
393,0.19047619047619047,2,42.412504507772105,-71.0584222527177,Swan St. Park,Year Round,Everett,15
394,-0.03296703296703297,2,42.4103469097679,-71.0526045785264,Broadway at Maple St,Year Round,Everett,14
395,-0.05434782608695652,2,42.4032805697253,-71.0476263985947,Chelsea St at Vine St,Year Round,Everett,11
397,0.5652173913043478,2,42.3983605962083,-71.0637384281472,Broadway at Beacham St,Year Round,Everett,15
398,-6.326086956521739,0,42.3655072850565,-71.0801375997653,75 Binney St,Year Round,Cambridge,19
399,-1.0217391304347827,2,42.348545434112,-71.0655918531575,Shawmut Ave at Oak St W,Year Round,Boston,15
400,2.4130434782608696,2,42.3473447317743,-71.1001680795016,Lansdowne T Stop,Year Round,Boston,27
401,-1.3369565217391304,2,42.32464510949409,-71.121352314949,High St at Cypress St,Year Round,Brookline,15
402,-3.8043478260869565,0,42.339858271263,-71.1342117109598,Washington Sq,Year Round,Brookline,15
403,-0.2608695652173913,2,42.3401224269664,-71.1207056381045,Marion St at Harvard St,Year Round,Brookline,15
404,-2.0217391304347827,0,42.3413561576735,-71.0833695345082,Mass Ave T Station,Year Round,Boston,16
405,1.2065217391304348,2,42.3203937430426,-71.0535540805176,Sydney St at Carson St,Year Round,Boston,19
406,-0.717391304347826,2,42.3918981159186,-71.0974537583024,Somerville City Hall Annex,Year Round,Somerville,19
407,-7.869565217391305,0,42.3883160758424,-71.1106824874878,Craigie at Summer St,Year Round,Somerville,19
408,0.532608695652174,2,42.3871746334831,-71.0871438852882,Edgerly Education Center,Year Round,Somerville,15
409,-1.0978260869565217,2,42.3895243630576,-71.1169414036431,Elm St at White St,Year Round,Somerville,19
410,0.2696629213483146,2,42.2916794287412,-71.0572634640994,Adams St at Lonsdale St,Winter Storage,Boston,15
412,0.25,2,42.3430329113026,-71.0668873043687,Washington St at Peters Park,Winter Storage,Boston,19
413,-1.9565217391304348,0,42.3695529775651,-71.0857901498093,Kennedy-Longfellow School 158 Spring St,Year Round,Cambridge,19
414,-0.17391304347826086,2,42.3979081736833,-71.1479713081462,Discovery Park - 30 Acorn Park Drive,Year Round,Cambridge,23
415,-0.33695652173913043,2,42.3495440311425,-71.0724207387284,Stuart St at Berkeley St,Year Round,Boston,19
416,0.45652173913043476,2,42.3643558902798,-71.0695936904267,Blossom St at Charles St,Winter Storage,Boston,15
417,-0.8369565217391305,2,42.344742247728,-71.0764816217579,Columbus Ave at W. Canton St,Year Round,Boston,19
419,0.5434782608695652,2,42.3754491254704,-71.0391854868249,Central Square East Boston,Year Round,Boston,15
421,0.3258426966292135,2,42.2911803479043,-71.117736660035,Northbourne Rd at Hyde Park Ave,Winter Storage,Boston,19
422,0.13432835820895522,2,42.278811581566,-71.1168770306267,American Legion Hwy at Cummins Hwy,Year Round,Boston,15
423,0.30952380952380953,2,42.2848447244354,-71.1187451706246,Mt. Hope St at Hyde Park Ave,Winter Storage,Boston,19
424,0.44565217391304346,2,42.3060456272408,-71.1157089100198,Jamaica St at South St,Year Round,Boston,19
425,-0.550561797752809,2,42.3193094317828,-71.096399238595,The Dimock Center,Year Round,Boston,16
426,-1.4777777777777779,2,42.3529456978258,-71.0565640080313,Surface Rd at Summer St,Year Round,Boston,27
427,-1.1666666666666667,2,42.280728147169,-71.1342375727327,Washington St at Denton Terr,Winter Storage,Boston,19
428,3.358695652173913,2,42.3617874106619,-71.1439311132745,Western Ave at Richardson St,Winter Storage,Boston,19
430,0.056338028169014086,2,42.2771946963979,-71.0695561395005,Washington St at Walsh Playground,Winter Storage,Boston,19
431,0.022727272727272728,2,42.2819862773391,-71.0714792462022,Washington St at Fuller St,Winter Storage,Boston,15
432,-0.3116883116883117,2,42.2863319911277,-71.1534475536973,Centre St at W. Roxbury Post Office,Year Round,Boston,19
433,-0.15151515151515152,2,42.282779010740505,-71.1572885141686,Centre St at Parkway YMCA,Year Round,Boston,19
434,-0.24285714285714285,2,42.2774844420082,-71.1634146795586,Spring St at Powell St,Year Round,Boston,19
435,0.20930232558139536,2,42.2709470702923,-71.0733790140512,Central Ave at River St,Year Round,Boston,15
436,-0.10869565217391304,2,42.3677412230601,-71.0333597474255,Maverick St at Massport Path,Year Round,Boston,15
437,0.8478260869565217,2,42.372076579154,-71.0899543390588,Berkshire Street at Cambridge Street,Year Round,Cambridge,19
440,1.1956521739130435,2,42.3565609230894,-71.1416753754929,Boston Landing,Year Round,Boston,17
441,-0.6413043478260869,2,42.3844522563584,-71.0751485452965,Sullivan Square,Year Round,Boston,19
442,-0.1978021978021978,2,42.2960670464987,-71.1160119996384,Hyde Park Ave at Walk Hill St,Year Round,Boston,15
443,0.24175824175824176,2,42.3328628848626,-71.0921886191682,Whittier St Health Center,Year Round,Boston,19
445,1.3369565217391304,2,42.3188646821754,-71.0453679786042,Geiger Gibson Community Health Center,Year Round,Boston,19
446,-0.6086956521739131,2,42.3496094533306,-71.1039152369813,700 Commonwealth Ave.,Year Round,Boston,16
447,-5.677777777777778,0,42.3467900834735,-71.1454981380666,The Overlook at St. Gabriel's,Year Round,Boston,19
448,0.03614457831325301,2,42.4206487,-71.0437126,Hale Park,Year Round,Everett,11
452,0.2608695652173913,2,42.3441489874953,-71.114673614502,1200 Beacon St,Year Round,Brookline,15
455,0.11956521739130435,2,42.3720761147229,-71.1568313068892,Coolidge Sq.,Year Round,Watertown,12
456,-1.923913043478261,0,42.3829443017227,-71.1244983103825,Graham and Parks School â€“ Linnaean St at Walker St,Year Round,Cambridge,19
458,0.043478260869565216,2,42.3652603176945,-71.1857332445925,Watertown Sq,Year Round,Watertown,15
459,4.826086956521739,2,42.3653009492908,-71.0609219099388,Canal St at Causeway St,Winter Storage,Boston,23
460,-1.576086956521739,2,42.358494490393,-71.0542646987597,Broad St at Central St,Winter Storage,Boston,15
461,1.8478260869565217,2,42.4160645711514,-71.1533663668206,Railroad Lot and Minuteman Bikeway,Year Round,Arlington,11
462,-0.11956521739130435,2,42.4093539551816,-71.1490651872737,Linwood St at Minuteman Bikeway,Year Round,Arlington,11
463,0.45652173913043476,2,42.3923974914583,-71.1505833175761,Smith Pl at Wilson Rd,Year Round,Cambridge,19
464,-0.08695652173913043,2,42.4072605244795,-71.1438213242582,Mass Ave at Grafton St,Year Round,Arlington,11
465,-0.06666666666666667,2,42.40994213011761,-71.1400931981189,Broadway at Grafton St,Winter Storage,Arlington,11
466,0.20987654320987653,2,42.3557433480578,-71.1864194250848,Centre St at Washington St,Offline for Winter,Newton,11
467,-0.056818181818181816,2,42.3538902439659,-71.1994370725734,Washington St at Crafts St,Offline for Winter,Newton,11
468,0.26136363636363635,2,42.3606845576816,-71.2014619959882,Nonantum Library,Offline for Winter,Newton,15
469,-0.3595505617977528,2,42.3571192090987,-71.1860453666327,Bacon St at Washington St,Offline for Winter,Newton,11
471,0.3804347826086957,2,42.3605417414061,-71.0866981744766,MIT Carleton St at Amherst St,Year Round,Cambridge,27
472,-7.086956521739131,0,42.360859373533,-71.0855185800756,MIT Hayward St at Amherst St,Year Round,Cambridge,27
473,0.2222222222222222,2,42.3496004986421,-71.2262749671936,West Newton,Offline for Winter,Newton,15
474,0.5735294117647058,2,42.3541040813966,-71.2138221412897,Watertown St at Albemarle Rd,Offline for Winter,Newton,11
475,0.8913043478260869,2,42.3627738854961,-71.1576485449041,Arsenal Yards,Year Round,Watertown,15
477,-0.25,2,42.3806693087132,-71.0390731599909,Marion St at White St,Year Round,Boston,19
478,-0.18478260869565216,2,42.3705775324214,-71.0355854011323,Gove St at Orleans St,Year Round,Boston,19
479,1.565217391304348,2,42.3630037815601,-71.089740377065,Galileo Galilei Way at Main Street,Year Round,Cambridge,19
480,-0.22826086956521738,2,42.4001680485379,-71.144569630942,Thorndike Field at Minuteman Bikeway,Year Round,Arlington,11
481,0.12087912087912088,2,42.3417808913719,-71.0398701650411,645 Summer St,Year Round,Boston,19
482,0.0125,2,42.4061612413225,-71.0604165494442,Kearins Playground,Year Round,Everett,11
483,0.5543478260869565,2,42.36411903523149,-71.028767824173,Porzio Park,Year Round,Boston,17
484,0.14666666666666667,2,42.408088,-71.008942,Revere Public Library,Year Round,Revere,11
485,0.7857142857142857,2,42.40741,-71.0139,Revere City Hall,Year Round,Revere,11
486,-0.08641975308641975,2,42.330528,-71.192861,Langley Lot,Offline for Winter,Newton,11
487,-0.45652173913043476,2,42.392525,-71.105587,Community Path at Lowell St,Year Round,Somerville,19
488,0.2826086956521739,2,42.324173,-71.10196,Martha Eliot Health Center,Year Round,Boston,16
489,0.0898876404494382,2,42.379295,-71.027733,Day Sq,Year Round,Boston,16
490,0.12987012987012986,2,42.286012,-71.090986,Blue Hill Ave at Havelock St,Year Round,Boston,18
491,-1.565217391304348,2,42.339194,-71.06975,Harrison Ave at E. Dedham St,Year Round,Boston,19
492,-0.3695652173913043,2,42.368019,-71.1242,Harvard Stadium: N. Harvard St at Soldiers Field Rd,Year Round,Boston,15
493,0.3076923076923077,2,42.28887,-71.095003,2 Hummingbird Lane at Olmsted Green,Year Round,Boston,17
494,-0.2087912087912088,2,42.367621,-71.187936,Watertown Town Hall,Year Round,Watertown,11
495,1.391304347826087,2,42.380078,-71.090098,Union Square East,Year Round,Somerville,19
502,-0.15217391304347827,2,42.3646640344168,-71.1756938695908,160 Arsenal,Year Round,Watertown,11
503,-0.09859154929577464,2,42.3981356455825,-71.030709722545,Cary Square,Year Round,Chelsea,12
504,0.2077922077922078,2,42.3931961102951,-71.033445596695,Bellingham Square,Year Round,Chelsea,11
505,0.23333333333333334,2,42.3902267110338,-71.0385701770429,Chelsea Square,Year Round,Chelsea,11
506,-0.3013698630136986,2,42.3945307929222,-71.0308559448458,Broadway at Gerrish Ave,Year Round,Chelsea,11
507,0.8351648351648352,2,42.3963652784968,-71.039871792309,Chelsea Station,Year Round,Chelsea,11
508,0.1,2,42.3984177261016,-71.0239092340271,855 Broadway,Year Round,Chelsea,11
509,1.0434782608695652,2,42.3676204874501,-71.1565663665533,Nichols Ave. at Watertown Greenway,Year Round,Watertown,12
510,1.0434782608695652,2,42.4142021320019,-71.1505188338924,Mass Ave at Broadway,Year Round,Arlington,11
511,-0.04918032786885246,2,42.2861142095835,-71.1463692784309,Bellevue T Stop,Winter Storage,Boston,19
512,-0.2558139534883721,2,42.2937665647353,-71.1365658044815,Knoll St at Centre St,Winter Storage,Boston,19
514,-0.58,2,42.3867355,-71.0946444,Gilman Square T at Medford St,Year Round,Somerville,19
515,-0.7065217391304348,2,42.36895180540729,-71.1099877953529,955 Mass Ave,Year Round,Cambridge,19
516,-0.6219512195121951,2,42.5218928411025,-70.8806911110878,Salem Ferry Landing,Offline for Winter,Salem,11
517,-0.7790697674418605,2,42.5346691138327,-70.8702144026756,Salem Willows Park,Offline for Winter,Salem,15
518,0.36904761904761907,2,42.5183678826224,-70.8895236253738,Shetland Park - Congress at Peabody St,Year Round,Salem,11
519,0.38372093023255816,2,42.5180351979677,-70.8957007527351,Mayor Salvo Path at Mill St,Year Round,Salem,11
520,0.5888888888888889,2,42.5234523934662,-70.8961111307144,Salem MBTA - Washington at Federal St,Year Round,Salem,13
521,-0.6707317073170732,2,42.511427843589,-70.8918330073357,Lafayette at Leach St,Year Round,Salem,11
522,0.1951219512195122,2,42.501823988963,-70.894780755043,Salem State University - Bike Path at Loring Ave,Year Round,Salem,15
523,-0.782608695652174,2,42.3398789161286,-71.167089343071,Boston College T,Year Round,Newton,17
524,-0.05434782608695652,2,42.3220656569529,-71.2063729763031,Newton Highlands T,Offline for Winter,Newton,15
525,0.29347826086956524,2,42.3651487081295,-71.2023603916168,California at Chapel,Offline for Winter,Newton,12
526,-0.06896551724137931,2,42.330062324403,-71.2066841125488,Beacon at Walnut,Offline for Winter,Newton,15
527,0.05263157894736842,2,42.3362033688301,-71.207794547081,Newton Library,Offline for Winter,Newton,13
528,0.3,2,42.351458116963,-71.2076497077942,Washington St at Walnut St,Offline for Winter,Newton,11
529,-11.326086956521738,0,42.3584776443481,-71.0613512992859,One Beacon St,Year Round,Boston,16
530,4.423913043478261,2,42.3930184003539,-71.0807168483734,Foley St at Grand Union Blvd,Year Round,Somerville,19
531,-1.3478260869565217,2,42.3443517550051,-71.1249035596848,Harvard St and Stedman St,Year Round,Brookline,15
532,0.5217391304347826,2,42.390719,-71.1538877,Concord Ave at Spinelli Place,Year Round,Cambridge,19
533,1.2934782608695652,2,42.389456,-71.139019,Danehy Park at New Street,Year Round,Cambridge,19
535,0.2625,2,42.3480554149335,-71.2477594614029,Auburndale,Offline for Winter,Newton,15
536,-3.8369565217391304,0,42.3607028354884,-71.055249273777,Clinton St at North St,Year Round,Boston,18
538,0.10112359550561797,2,42.2970412642095,-71.0917192697525,Circuit Drive at American Legion Hwy,Year Round,Boston,19
539,-0.5494505494505495,2,42.31242399029809,-71.0961690545082,Walnut Ave at School St,Year Round,Boston,19
540,0.3,2,42.4083370581297,-70.9980484843254,Sumner St at Shirley Ave,Year Round,Revere,11
541,1.673913043478261,2,42.4071565569864,-70.9927242994309,Orr Sq (Shirley Ave),Year Round,Revere,11
542,0.38095238095238093,2,42.2628674617712,-71.1216312646866,Hyde Park Ave at Arlington St,Winter Storage,Boston,19
543,0.37777777777777777,2,42.272653941019,-71.119903922081,American Legion Hwy at Hyde Park Ave,Winter Storage,Boston,19
544,0.21739130434782608,2,42.3576624788988,-71.1084133386612,Old Morse Park at Putnam Ave,Year Round,Cambridge,15
545,-0.24324324324324326,2,42.278747,-71.080286,Morton St at Gallivan Blvd,Year Round,Boston,15
546,0.43333333333333335,2,42.2556,-71.12444,Cleary Sq,Year Round,Boston,16
547,0.2926829268292683,2,42.28578,-71.109725,606 American Legion Hwy at Canterbury St,Year Round,Boston,18
548,0.2,2,42.2681,-71.11924,555 Metropolitan Ave,Year Round,Boston,18
549,-2.9239130434782608,0,42.36473898691791,-71.0593490302563,Valenti Way at Haverhill St,Year Round,Boston,24
550,-4.521739130434782,0,42.3864,-71.09601,Somerville High School & Central Library,Year Round,Somerville,17
553,-2.0543478260869565,0,42.371141,-71.076198,Cambridge Crossing at North First Street,Year Round,Cambridge,23
554,3.75,2,42.339202,-71.090511,Forsyth St at Huntington Ave,Year Round,Boston,15
555,0.01694915254237288,2,42.2568376,-71.122509,Hyde Park Library,Year Round,Boston,15
556,0.038461538461538464,2,42.2645666,-71.1145523,Ross Playground,Year Round,Boston,19
557,-4.163043478260869,0,42.3664204,-71.0885418,Galileo Galilei Way at Fulkerson St/Binney St,Year Round,Cambridge,19
558,-5.869565217391305,0,42.3332925471918,-71.1012464761734,St. Alphonsus St at Tremont St,Year Round,Boston,18
559,-0.10909090909090909,2,42.3362358,-71.1934421,Centre St at Commonwealth Ave,Offline for Winter,Newton,11
560,-0.2840909090909091,2,42.3342035135225,-71.0876761684312,Flat 9 at Whittier,Year Round,Boston,15
561,-1.923913043478261,0,42.3502102,-71.0446705,Pier 4 Blvd at Autumn Ln,Year Round,Boston,19
562,0.43820224719101125,2,42.5223714,-70.8903331,Hawthorne Boulevard,Year Round,Salem,9
563,-0.07608695652173914,2,42.3851814651394,-71.0151367,Addison St at Saratoga St,Winter Storage,Boston,19
564,-0.5652173913043478,2,42.3873695374718,-71.127610014828,Raymond Park at Walden St,Year Round,Cambridge,19
565,-1.2804878048780488,2,42.4023682,-71.0757318242478,Wellington MBTA,Year Round,Medford,19
566,-1.392156862745098,2,42.3629016,-71.0915669,Main Street/Albany Street/Technology Square,Year Round,Cambridge,23
567,1.1304347826086956,2,42.3528376,-71.1296752,Brighton Ave at Linden St,Winter Storage,Boston,19
568,0.5909090909090909,2,42.3358461299708,-71.0803815722466,Shawmut Ave at Lenox St,Year Round,Boston,19
569,-0.8,2,42.3800453469331,-71.0730457305908,Hood Park,Year Round,Boston,23
570,0.0,2,42.503332,-70.891444,Salem State University - North Campus,Year Round,Salem,11
571,-1.5,2,42.506395,-70.88693,Forest River Park,Year Round,Salem,11
572,0.6666666666666666,2,42.516223,-70.905535,Essex St at Dalton Parkway,Year Round,Salem,11
